{"type":"FeatureCollection","features":[{"type":"Feature","geometry":{"type":"Point","coordinates":[-89.873948,39.2886932]},"properties":{"Sch_Name":"Blackburn College","Category":"Traditional","Address":"700 College Ave #1, Carlinville, IL 62626","":"","Source:  https://en.wikipedia.org/wiki/List_of_colleges_and_universities_in_Greater_St._Louis":""}},{"type":"Feature","geometry":{"type":"Point","coordinates":[-90.318085,38.641545]},"properties":{"Sch_Name":"Fontbonne University","Category":"Traditional","Address":"6800 Wydown Blvd, St. Louis, MO 63105","":"","Source:  https://en.wikipedia.org/wiki/List_of_colleges_and_universities_in_Greater_St._Louis":""}},{"type":"Feature","geometry":{"type":"Point","coordinates":[-89.4106274,38.894586]},"properties":{"Sch_Name":"Greenville University","Category":"Traditional","Address":"315 E College Ave, Greenville, IL 62246","":"","Source:  https://en.wikipedia.org/wiki/List_of_colleges_and_universities_in_Greater_St._Louis":""}},{"type":"Feature","geometry":{"type":"Point","coordinates":[-90.2263678,38.6332575]},"properties":{"Sch_Name":"Harris-Stowe State University","Category":"Traditional","Address":"3026 Laclede Ave, St. Louis, MO 63103","":"","Source:  https://en.wikipedia.org/wiki/List_of_colleges_and_universities_in_Greater_St._Louis":""}},{"type":"Feature","geometry":{"type":"Point","coordinates":[-90.3964424,38.6497702]},"properties":{"Sch_Name":"Lindenwood University","Category":"Traditional","Address":"209 S Kingshighway St, St Charles, MO 63301","":"","Source:  https://en.wikipedia.org/wiki/List_of_colleges_and_universities_in_Greater_St._Louis":""}},{"type":"Feature","geometry":{"type":"Point","coordinates":[-90.506873,38.644986]},"properties":{"Sch_Name":"Maryville University","Category":"Traditional","Address":"650 Maryville University Dr, St. Louis, MO 63141","":"","Source:  https://en.wikipedia.org/wiki/List_of_colleges_and_universities_in_Greater_St._Louis":""}},{"type":"Feature","geometry":{"type":"Point","coordinates":[-89.8166284,38.6084161]},"properties":{"Sch_Name":"McKendrree University","Category":"Traditional","Address":"701 College Rd, Lebanon, IL 62254","":"","Source:  https://en.wikipedia.org/wiki/List_of_colleges_and_universities_in_Greater_St._Louis":""}},{"type":"Feature","geometry":{"type":"Point","coordinates":[-90.4654508,38.6415281]},"properties":{"Sch_Name":"Missouri Baptist University","Category":"Traditional","Address":"1 College Park Dr, St. Louis, MO 63141","":"","Source:  https://en.wikipedia.org/wiki/List_of_colleges_and_universities_in_Greater_St._Louis":""}},{"type":"Feature","geometry":{"type":"Point","coordinates":[-90.3506573,38.9488338]},"properties":{"Sch_Name":"Principia College","Category":"Traditional","Address":"1 Front Gate Rd, Elsah, IL 62028","":"","Source:  https://en.wikipedia.org/wiki/List_of_colleges_and_universities_in_Greater_St._Louis":""}},{"type":"Feature","geometry":{"type":"Point","coordinates":[-90.2504996,38.6278778]},"properties":{"Sch_Name":"Saint Louis University","Category":"Traditional","Address":"1 N Grand Blvd, St. Louis, MO 63103","":"","Source:  https://en.wikipedia.org/wiki/List_of_colleges_and_universities_in_Greater_St._Louis":""}},{"type":"Feature","geometry":{"type":"Point","coordinates":[-89.997848,38.793103]},"properties":{"Sch_Name":"Southern Illinois University Edwardsville","Category":"Traditional","Address":"1 Hairpin Dr, Edwardsville, IL 62025","":"","Source:  https://en.wikipedia.org/wiki/List_of_colleges_and_universities_in_Greater_St._Louis":""}},{"type":"Feature","geometry":{"type":"Point","coordinates":[-90.3104687,38.7092401]},"properties":{"Sch_Name":"University of Missouri- St. Louis","Category":"Traditional","Address":"1 University Blvd, St. Louis, MO 63121","":"","Source:  https://en.wikipedia.org/wiki/List_of_colleges_and_universities_in_Greater_St._Louis":""}},{"type":"Feature","geometry":{"type":"Point","coordinates":[-90.312984,38.6487895]},"properties":{"Sch_Name":"Washington University in St. Louis","Category":"Traditional","Address":"1 Brookings Dr, St. Louis, MO 63130","":"","Source:  https://en.wikipedia.org/wiki/List_of_colleges_and_universities_in_Greater_St._Louis":""}},{"type":"Feature","geometry":{"type":"Point","coordinates":[-90.345019,38.5964041]},"properties":{"Sch_Name":"Webster University","Category":"Traditional","Address":"Maplewood, MO 63143","":"","Source:  https://en.wikipedia.org/wiki/List_of_colleges_and_universities_in_Greater_St._Louis":""}},{"type":"Feature","geometry":{"type":"Point","coordinates":[-92.6862553,39.1513054]},"properties":{"Sch_Name":"Central Methodist University","Category":"Satellite","Address":"411 Central Methodist Square, Fayette, MO 65248","":"","Source:  https://en.wikipedia.org/wiki/List_of_colleges_and_universities_in_Greater_St._Louis":""}},{"type":"Feature","geometry":{"type":"Point","coordinates":[-92.3286019,38.9578722]},"properties":{"Sch_Name":"Columbia College","Category":"Satellite","Address":"1001 Rogers St 111 Missouri Hall, Columbia, MO 65201","":"","Source:  https://en.wikipedia.org/wiki/List_of_colleges_and_universities_in_Greater_St._Louis":""}},{"type":"Feature","geometry":{"type":"Point","coordinates":[-90.544595,38.6313301]},"properties":{"Sch_Name":"Logan University","Category":"Special Focus","Address":"1851 Schoettler Rd, Chesterfield, MO 63017","":"","Source:  https://en.wikipedia.org/wiki/List_of_colleges_and_universities_in_Greater_St._Louis":""}},{"type":"Feature","geometry":{"type":"Point","coordinates":[-90.2507272,38.6531744]},"properties":{"Sch_Name":"Ranken Technical College","Category":"Special Focus","Address":"4431 Finney Ave, St. Louis, MO 63113","":"","Source:  https://en.wikipedia.org/wiki/List_of_colleges_and_universities_in_Greater_St._Louis":""}},{"type":"Feature","geometry":{"type":"Point","coordinates":[-90.2630682,38.6366082]},"properties":{"Sch_Name":"St. Louis College of Pharmacy","Category":"Special Focus","Address":"4588 Parkview Pl, St. Louis, MO 63110","":"","Source:  https://en.wikipedia.org/wiki/List_of_colleges_and_universities_in_Greater_St._Louis":""}},{"type":"Feature","geometry":{"type":"Point","coordinates":[-90.9804302,38.4317925]},"properties":{"Sch_Name":"East Central College","Category":"Community/ Jr College","Address":"1964 Prairie Dell Rd, Union, MO 63084","":"","Source:  https://en.wikipedia.org/wiki/List_of_colleges_and_universities_in_Greater_St._Louis":""}},{"type":"Feature","geometry":{"type":"Point","coordinates":[-90.9752861,38.4294815]},"properties":{"Sch_Name":"Jefferson College ","Category":"Community/ Jr College","Address":"1964 Prairie Dell Rd, Union, MO 63084","":"","Source:  https://en.wikipedia.org/wiki/List_of_colleges_and_universities_in_Greater_St._Louis":""}},{"type":"Feature","geometry":{"type":"Point","coordinates":[-90.1966266,38.951806]},"properties":{"Sch_Name":"Lewis and Clark Community College","Category":"Community/ Jr College","Address":"5800 Godfrey Rd, Godfrey, IL 62035","":"","Source:  https://en.wikipedia.org/wiki/List_of_colleges_and_universities_in_Greater_St._Louis":""}},{"type":"Feature","geometry":{"type":"Point","coordinates":[-90.642065,38.759092]},"properties":{"Sch_Name":"St. Charles Community College","Category":"Community/ Jr College","Address":"4601 Mid Rivers Mall Dr, Cottleville, MO 63376","":"","Source:  https://en.wikipedia.org/wiki/List_of_colleges_and_universities_in_Greater_St._Louis":""}},{"type":"Feature","geometry":{"type":"Point","coordinates":[-90.4905434,38.5684131]},"properties":{"Sch_Name":"St. Louis Commmunity  College","Category":"Community/ Jr College","Address":"11333 Big Bend Rd, St. Louis, MO 63122","":"","Source:  https://en.wikipedia.org/wiki/List_of_colleges_and_universities_in_Greater_St._Louis":""}},{"type":"Feature","geometry":{"type":"Point","coordinates":[-89.925539,38.516694]},"properties":{"Sch_Name":"Southwestern Illinois College","Category":"Community/ Jr College","Address":"2500 Carlyle Ave, Belleville, IL 62221","":"","Source:  https://en.wikipedia.org/wiki/List_of_colleges_and_universities_in_Greater_St._Louis":""}},{"type":"Feature","geometry":{"type":"Point","coordinates":[-90.240119,38.6341331]},"properties":{"Sch_Name":"Aquinas Institute of Theology","Category":"Seminaries","Address":"23 S Spring Ave, St. Louis, MO 63108","":"","Source:  https://en.wikipedia.org/wiki/List_of_colleges_and_universities_in_Greater_St._Louis":""}},{"type":"Feature","geometry":{"type":"Point","coordinates":[-90.3144172,38.6381561]},"properties":{"Sch_Name":"Concordia Seminary","Category":"Seminaries","Address":"801 Seminary Pl, St. Louis, MO 63105","":"","Source:  https://en.wikipedia.org/wiki/List_of_colleges_and_universities_in_Greater_St._Louis":""}},{"type":"Feature","geometry":{"type":"Point","coordinates":[-90.4542735,38.6436756]},"properties":{"Sch_Name":"Covenant Theological Seminary","Category":"Seminaries","Address":"12330 Conway Rd, Creve Coeur, MO 63141","":"","Source:  https://en.wikipedia.org/wiki/List_of_colleges_and_universities_in_Greater_St._Louis":""}},{"type":"Feature","geometry":{"type":"Point","coordinates":[-90.3470269,38.5928115]},"properties":{"Sch_Name":"Eden Theological Seminary","Category":"Seminaries","Address":"475 E Lockwood Ave, St. Louis, MO 63119","":"","Source:  https://en.wikipedia.org/wiki/List_of_colleges_and_universities_in_Greater_St._Louis":""}},{"type":"Feature","geometry":{"type":"Point","coordinates":[-90.3262155,38.5845498]},"properties":{"Sch_Name":"Kenrick-Glennon Seminary","Category":"Seminaries","Address":"5200 Glennon Dr, St. Louis, MO 63119","":"","Source:  https://en.wikipedia.org/wiki/List_of_colleges_and_universities_in_Greater_St._Louis":""}},{"type":"Feature","geometry":{"type":"Point","coordinates":[-90.3669824,38.8013305]},"properties":{"Sch_Name":"Urshan Graduate School of Theology","Category":"Seminaries","Address":"704 Howdershell Rd, Florissant, MO 63031","":"","Source:  https://en.wikipedia.org/wiki/List_of_colleges_and_universities_in_Greater_St._Louis":""}},{"type":"Feature","geometry":{"type":"Point","coordinates":[-90.3817429,38.7268667]},"properties":{"Sch_Name":"Brookes Bible College","Category":"Bible College","Address":"10257 St Charles Rock Rd, St Ann, MO 63074","":"","Source:  https://en.wikipedia.org/wiki/List_of_colleges_and_universities_in_Greater_St._Louis":""}},{"type":"Feature","geometry":{"type":"Point","coordinates":[-90.8345835,38.8334076]},"properties":{"Sch_Name":"Midwest University","Category":"Bible College","Address":"851 Parr Rd, Wentzville, MO 63385","":"","Source:  https://en.wikipedia.org/wiki/List_of_colleges_and_universities_in_Greater_St._Louis":""}},{"type":"Feature","geometry":{"type":"Point","coordinates":[-90.2968882,38.7755442]},"properties":{"Sch_Name":"St. Louis Christian College","Category":"Bible College","Address":"1360 Grandview Dr, Florissant, MO 63033","":"","Source:  https://en.wikipedia.org/wiki/List_of_colleges_and_universities_in_Greater_St._Louis":""}},{"type":"Feature","geometry":{"type":"Point","coordinates":[-90.4152137,38.6140917]},"properties":{"Sch_Name":"St. Louis Theological Seminary","Category":"Bible College","Address":"475 E Lockwood Ave, St. Louis, MO 63119","":"","Source:  https://en.wikipedia.org/wiki/List_of_colleges_and_universities_in_Greater_St._Louis":""}},{"type":"Feature","geometry":{"type":"Point","coordinates":[-90.367026,38.8010183]},"properties":{"Sch_Name":"Urshan College","Category":"Bible College","Address":"700 Howdershell Rd, Florissant, MO 63031","":"","Source:  https://en.wikipedia.org/wiki/List_of_colleges_and_universities_in_Greater_St._Louis":""}},{"type":"Feature","geometry":{"type":"Point","coordinates":[-90.2893458,38.613128]},"properties":{"Sch_Name":"Broadcast Center","Category":"Business/ Career/ Trade School","Address":"2360 Hampton Ave, St. Louis, MO 63139","":"","Source:  https://en.wikipedia.org/wiki/List_of_colleges_and_universities_in_Greater_St._Louis":""}},{"type":"Feature","geometry":{"type":"Point","coordinates":[-90.449543,38.53991]},"properties":{"Sch_Name":"Brown Mackie College","Category":"Business/ Career/ Trade School","Address":"1663 Fenton Business Park Ct, Fenton, MO 63026","":"","Source:  https://en.wikipedia.org/wiki/List_of_colleges_and_universities_in_Greater_St._Louis":""}},{"type":"Feature","geometry":{"type":"Point","coordinates":[-90.260816,38.637259]},"properties":{"Sch_Name":"Goldfarb School of Nursing at BJC","Category":"Business/ Career/ Trade School","Address":"4483 Duncan Ave, St. Louis, MO 63110","":"","Source:  https://en.wikipedia.org/wiki/List_of_colleges_and_universities_in_Greater_St._Louis":""}},{"type":"Feature","geometry":{"type":"Point","coordinates":[-90.4097275,38.7095833]},"properties":{"Sch_Name":"Hickey College","Category":"Business/ Career/ Trade School","Address":"2700 N Lindbergh Blvd, St. Louis, MO 63114","":"","Source:  https://en.wikipedia.org/wiki/List_of_colleges_and_universities_in_Greater_St._Louis":""}},{"type":"Feature","geometry":{"type":"Point","coordinates":[-90.394357,38.6353616]},"properties":{"Sch_Name":"L'Ecole Culinaire","Category":"Business/ Career/ Trade School","Address":"9811 S 40 Dr, St. Louis, MO 63124","":"","Source:  https://en.wikipedia.org/wiki/List_of_colleges_and_universities_in_Greater_St._Louis":""}},{"type":"Feature","geometry":{"type":"Point","coordinates":[-90.3655415,38.6423605]},"properties":{"Sch_Name":"Midwest Institute","Category":"Business/ Career/ Trade School","Address":"2 Soccer Park Rd, Fenton, MO 63026","":"","Source:  https://en.wikipedia.org/wiki/List_of_colleges_and_universities_in_Greater_St._Louis":""}},{"type":"Feature","geometry":{"type":"Point","coordinates":[-90.3669157,38.6420265]},"properties":{"Sch_Name":"St. Louis College of Health Careers","Category":"Business/ Career/ Trade School","Address":"1297 N Hwy Dr, Fenton, MO 63026","":"","Source:  https://en.wikipedia.org/wiki/List_of_colleges_and_universities_in_Greater_St._Louis":""}},{"type":"Feature","geometry":{"type":"Point","coordinates":[-90.2032923,38.6329725]},"properties":{"Sch_Name":"Stevens Institute of Business and Arts","Category":"Business/ Career/ Trade School","Address":"1521 Washington Ave, St. Louis, MO 63103","":"","Source:  https://en.wikipedia.org/wiki/List_of_colleges_and_universities_in_Greater_St._Louis":""}},{"type":"Feature","geometry":{"type":"Point","coordinates":[-90.4349216,38.6216486]},"properties":{"Sch_Name":"Vatterott College","Category":"Business/ Career/ Trade School","Address":"8580 Evans Ave, Berkeley, MO 63134","":"","Source:  https://en.wikipedia.org/wiki/List_of_colleges_and_universities_in_Greater_St._Louis":""}}]}
